property_name,market,submarket,address,city,rooms,chain_scale,status,projected_open_date,brand,developer,floors,lat,lon,notes
Dana Cove Hotel,South Orange County CA,Dana Point,34700 Pacific Coast Hwy,Dana Point,136,Upper Upscale,Under Construction,2025-Q3,Independent Boutique,Coastal Hospitality Partners,5,33.4685,-117.6981,Oceanfront boutique; replaces legacy motel site; harbor views
Strands Beach Hotel & Residences,South Orange County CA,Dana Point,Strand Vista Drive,Dana Point,88,Upscale,Final Planning / Permitting,2026-Q1,Autograph Collection,Pacific Strand Development LLC,4,33.4612,-117.7145,Mixed-use: 88 hotel rooms + 24 branded residences
Laguna Beach Bungalows,South Orange County CA,Laguna Beach,1000 N Coast Hwy,Laguna Beach,54,Upper Upscale,Under Construction,2025-Q1,Independent Boutique,SoCal Lodging Group,3,33.5427,-117.7854,Boutique expansion of legacy property; lifestyle positioning
San Clemente Harbor Inn,South Orange County CA,San Clemente,2850 Avenida Del Presidente,San Clemente,62,Upscale,Planned,2026-Q4,Tapestry Collection by Hilton,Harbor View Partners,4,33.4222,-117.6201,Conversion of office property; entitlements in process
Monarch Beach Residences — Hotel Tower,South Orange County CA,Dana Point,One Monarch Beach Resort,Dana Point,48,Luxury,Final Planning / Permitting,2026-Q2,Waldorf Astoria (expansion),Monarch Beach Resort Owner LLC,12,33.473,-117.7052,Luxury tower addition to existing Waldorf Astoria Monarch Beach
Capistrano Beach Inn,South Orange County CA,Dana Point,35000 Beach Rd,Dana Point,72,Upper Midscale,Planned,2027-Q1,Courtyard by Marriott,Capo Beach Hospitality LLC,5,33.4498,-117.6789,New build on former commercial pad; freeway-adjacent
